{
"type": "FeatureCollection",
"crs": { "type": "name", "properties": { "name": "urn:ogc:def:crs:EPSG::4269" } },
"features": [
{ "type": "Feature", "properties": { "ID": "132248", "NAME": "COOKSTOWN", "CITY": "NORTH HANOVER TWP", "ZIPCODE": "08562", "LINES": 2 }, "geometry": { "type": "MultiPoint", "coordinates": [ [ -74.549053750266069, 40.062370025318046 ] ] } },
{ "type": "Feature", "properties": { "ID": "143957", "NAME": "CROYDON", "CITY": "CROYDON", "ZIPCODE": "19021", "LINES": 4 }, "geometry": { "type": "MultiPoint", "coordinates": [ [ -74.891339721289413, 40.080705299272857 ] ] } },
{ "type": "Feature", "properties": { "ID": "132298", "NAME": "LAWNSIDE", "CITY": "LAWNSIDE", "ZIPCODE": "08045", "LINES": 0 }, "geometry": { "type": "MultiPoint", "coordinates": [ [ -75.018373609058983, 39.860786393236417 ] ] } },
{ "type": "Feature", "properties": { "ID": "132691", "NAME": "BURLINGTON2", "CITY": "BURLINGTON", "ZIPCODE": "08016", "LINES": 4 }, "geometry": { "type": "MultiPoint", "coordinates": [ [ -74.876556867107524, 40.076129784910947 ] ] } },
{ "type": "Feature", "properties": { "ID": "132975", "NAME": "BURLINGTON3", "CITY": "BURLINGTON", "ZIPCODE": "08016", "LINES": 2 }, "geometry": { "type": "MultiPoint", "coordinates": [ [ -74.876975927594287, 40.077766564660443 ] ] } },
{ "type": "Feature", "properties": { "ID": "143963", "NAME": "CINNAMINSON", "CITY": "RIVERTON", "ZIPCODE": "08077", "LINES": 5 }, "geometry": { "type": "MultiPoint", "coordinates": [ [ -74.969028251288705, 39.997552314119218 ] ] } },
{ "type": "Feature", "properties": { "ID": "143964", "NAME": "CINNAMINSON", "CITY": "RIVERTON", "ZIPCODE": "08077", "LINES": 1 }, "geometry": { "type": "MultiPoint", "coordinates": [ [ -74.967661780790905, 39.997770169844394 ] ] } },
{ "type": "Feature", "properties": { "ID": "143965", "NAME": "LEVITTOWN", "CITY": "WILLINGBORO", "ZIPCODE": "08046", "LINES": 5 }, "geometry": { "type": "MultiPoint", "coordinates": [ [ -74.880352044367044, 40.028034649295165 ] ] } },
{ "type": "Feature", "properties": { "ID": "143966", "NAME": "MOUNT LAUREL", "CITY": "MT LAUREL TWP", "ZIPCODE": "08054", "LINES": 4 }, "geometry": { "type": "MultiPoint", "coordinates": [ [ -74.88037721875456, 39.947529345272429 ] ] } },
{ "type": "Feature", "properties": { "ID": "143967", "NAME": "BURLINGTON", "CITY": "BURLINGTON", "ZIPCODE": "08016", "LINES": 5 }, "geometry": { "type": "MultiPoint", "coordinates": [ [ -74.874083844656198, 40.075233646986909 ] ] } },
{ "type": "Feature", "properties": { "ID": "143968", "NAME": "COXS CORNER", "CITY": "MARLTON", "ZIPCODE": "08053", "LINES": 5 }, "geometry": { "type": "MultiPoint", "coordinates": [ [ -74.870326075041746, 39.915989361890681 ] ] } },
{ "type": "Feature", "properties": { "ID": "143969", "NAME": "LUMBERTON", "CITY": "LUMBERTON TWP", "ZIPCODE": "08048", "LINES": 2 }, "geometry": { "type": "MultiPoint", "coordinates": [ [ -74.810385262768435, 39.950541116690523 ] ] } },
{ "type": "Feature", "properties": { "ID": "143970", "NAME": "BUSTLETON", "CITY": "FLORENCE TWP", "ZIPCODE": "08016", "LINES": 4 }, "geometry": { "type": "MultiPoint", "coordinates": [ [ -74.783139742883407, 40.079200895185345 ] ] } },
{ "type": "Feature", "properties": { "ID": "143971", "NAME": "MARLTON", "CITY": "MARLTON", "ZIPCODE": "08053", "LINES": 4 }, "geometry": { "type": "MultiPoint", "coordinates": [ [ -74.931978591156337, 39.901103157182725 ] ] } },
{ "type": "Feature", "properties": { "ID": "143972", "NAME": "MONROE", "CITY": "WILLIAMSTOWN", "ZIPCODE": "08094", "LINES": 6 }, "geometry": { "type": "MultiPoint", "coordinates": [ [ -75.024779375874118, 39.676527693841784 ] ] } },
{ "type": "Feature", "properties": { "ID": "143973", "NAME": "SICKLER", "CITY": "SICKLERVILLE", "ZIPCODE": "08081", "LINES": 4 }, "geometry": { "type": "MultiPoint", "coordinates": [ [ -74.973020376089437, 39.734039108218333 ] ] } },
{ "type": "Feature", "properties": { "ID": "143974", "NAME": "NEW FREEDOM", "CITY": "WAYNE", "ZIPCODE": "07470", "LINES": 10 }, "geometry": { "type": "MultiPoint", "coordinates": [ [ -74.962755850157293, 39.741000424113253 ] ] } },
{ "type": "Feature", "properties": { "ID": "143975", "NAME": "SILVER LAKE", "CITY": "WEST BERLIN", "ZIPCODE": "08091", "LINES": 2 }, "geometry": { "type": "MultiPoint", "coordinates": [ [ -74.952950269012234, 39.810340935259866 ] ] } },
{ "type": "Feature", "properties": { "ID": "141103", "NAME": "PINE STREET", "CITY": "CAMDEN", "ZIPCODE": "08103", "LINES": 0 }, "geometry": { "type": "MultiPoint", "coordinates": [ [ -75.102257242854463, 39.937430616187207 ] ] } },
{ "type": "Feature", "properties": { "ID": "143961", "NAME": "GLOUCESTER SWITCHING STATION", "CITY": "GLOUCESTER CITY", "ZIPCODE": "08030", "LINES": 2 }, "geometry": { "type": "MultiPoint", "coordinates": [ [ -75.098179423267197, 39.889244468297413 ] ] } },
{ "type": "Feature", "properties": { "ID": "132238", "NAME": "HILLTOP", "CITY": "GLOUCESTER TWP", "ZIPCODE": "08012", "LINES": 0 }, "geometry": { "type": "MultiPoint", "coordinates": [ [ -75.069248615400127, 39.827547106018898 ] ] } },
{ "type": "Feature", "properties": { "ID": "132371", "NAME": "BLACK HORSE", "CITY": "AUDUBON", "ZIPCODE": "08106", "LINES": 0 }, "geometry": { "type": "MultiPoint", "coordinates": [ [ -75.085799617267554, 39.892933221269985 ] ] } },
{ "type": "Feature", "properties": { "ID": "132372", "NAME": "32 STREET", "CITY": "CAMDEN", "ZIPCODE": "08105", "LINES": 0 }, "geometry": { "type": "MultiPoint", "coordinates": [ [ -75.076126658899469, 39.948868531123672 ] ] } },
{ "type": "Feature", "properties": { "ID": "132373", "NAME": "HADDONFIELD 1", "CITY": "HADDONFIELD", "ZIPCODE": "08033", "LINES": 0 }, "geometry": { "type": "MultiPoint", "coordinates": [ [ -75.042594566959409, 39.90383721568486 ] ] } },
{ "type": "Feature", "properties": { "ID": "132976", "NAME": "HADDONFIELD 2", "CITY": "HADDON TWP", "ZIPCODE": "08108", "LINES": 0 }, "geometry": { "type": "MultiPoint", "coordinates": [ [ -75.046151660125929, 39.907568597315816 ] ] } },
{ "type": "Feature", "properties": { "ID": "143962", "NAME": "CAMDEN", "CITY": "MERCHANTVILLE", "ZIPCODE": "08109", "LINES": 5 }, "geometry": { "type": "MultiPoint", "coordinates": [ [ -75.044663494856579, 39.965808408343179 ] ] } },
{ "type": "Feature", "properties": { "ID": "144390", "NAME": "COURT", "CITY": "BELLMAWR", "ZIPCODE": "08031", "LINES": 2 }, "geometry": { "type": "MultiPoint", "coordinates": [ [ -75.079855221589085, 39.861251691973798 ] ] } },
{ "type": "Feature", "properties": { "ID": "141124", "NAME": "CROWN", "CITY": "WEST DEPTFORD TWP", "ZIPCODE": "08066", "LINES": 0 }, "geometry": { "type": "MultiPoint", "coordinates": [ [ -75.221039010591383, 39.839916154717415 ] ] } },
{ "type": "Feature", "properties": { "ID": "133154", "NAME": "EAGLE POINT 2", "CITY": "NOT AVAILABLE", "ZIPCODE": "NOT AVAILABLE", "LINES": 0 }, "geometry": { "type": "MultiPoint", "coordinates": [ [ -75.156160108895619, 39.871991296805916 ] ] } },
{ "type": "Feature", "properties": { "ID": "132294", "NAME": "BRIDGEPORT", "CITY": "NOT AVAILABLE", "ZIPCODE": "NOT AVAILABLE", "LINES": 3 }, "geometry": { "type": "MultiPoint", "coordinates": [ [ -75.405221269725814, 39.793148997873779 ] ] } },
{ "type": "Feature", "properties": { "ID": "132295", "NAME": "NORTONVILLE", "CITY": "LOGAN TWP", "ZIPCODE": "08085", "LINES": 0 }, "geometry": { "type": "MultiPoint", "coordinates": [ [ -75.401473068067446, 39.786321260294848 ] ] } },
{ "type": "Feature", "properties": { "ID": "132369", "NAME": "BECKETT", "CITY": "WOOLWICH TWP", "ZIPCODE": "08085", "LINES": 0 }, "geometry": { "type": "MultiPoint", "coordinates": [ [ -75.350577557679941, 39.743965043723392 ] ] } },
{ "type": "Feature", "properties": { "ID": "132618", "NAME": "ORCHARD", "CITY": "HANLEY FALLS", "ZIPCODE": "56245", "LINES": 2 }, "geometry": { "type": "MultiPoint", "coordinates": [ [ -75.247279592354587, 39.586010908000162 ] ] } },
{ "type": "Feature", "properties": { "ID": "132620", "NAME": "WOODSTOWN", "CITY": "PILESGROVE TWP", "ZIPCODE": "08098", "LINES": 2 }, "geometry": { "type": "MultiPoint", "coordinates": [ [ -75.31794109416299, 39.636545484112176 ] ] } },
{ "type": "Feature", "properties": { "ID": "144071", "NAME": "LANDIS", "CITY": "VINELAND", "ZIPCODE": "08360", "LINES": 4 }, "geometry": { "type": "MultiPoint", "coordinates": [ [ -75.051119335562277, 39.53390563772421 ] ] } },
{ "type": "Feature", "properties": { "ID": "144379", "NAME": "MICKLETON", "CITY": "EAST GREENWICH TWP", "ZIPCODE": "08056", "LINES": 6 }, "geometry": { "type": "MultiPoint", "coordinates": [ [ -75.249211645748545, 39.811856780814061 ] ] } },
{ "type": "Feature", "properties": { "ID": "144381", "NAME": "PEDRICKTOWN", "CITY": "PEDRICKTOWN", "ZIPCODE": "08067", "LINES": 3 }, "geometry": { "type": "MultiPoint", "coordinates": [ [ -75.424301436953158, 39.767632992824225 ] ] } },
{ "type": "Feature", "properties": { "ID": "144382", "NAME": "UPPER PITTSGROVE", "CITY": "UPPER PITTSGROVE TWP", "ZIPCODE": "08318", "LINES": 2 }, "geometry": { "type": "MultiPoint", "coordinates": [ [ -75.225571996651638, 39.571951847930791 ] ] } },
{ "type": "Feature", "properties": { "ID": "144387", "NAME": "THOROFARE", "CITY": "WEST DEPTFORD TWP", "ZIPCODE": "08086", "LINES": 2 }, "geometry": { "type": "MultiPoint", "coordinates": [ [ -75.189205205255519, 39.837096693711423 ] ] } },
{ "type": "Feature", "properties": { "ID": "144388", "NAME": "EAGLE POINT", "CITY": "WEST DEPTFORD TWP", "ZIPCODE": "08093", "LINES": 2 }, "geometry": { "type": "MultiPoint", "coordinates": [ [ -75.137194725700311, 39.869695473247752 ] ] } },
{ "type": "Feature", "properties": { "ID": "144389", "NAME": "DEPTFORD", "CITY": "WESTVILLE", "ZIPCODE": "08093", "LINES": 2 }, "geometry": { "type": "MultiPoint", "coordinates": [ [ -75.136937123012814, 39.859011873103697 ] ] } },
{ "type": "Feature", "properties": { "ID": "132623", "NAME": "CHAMBERS", "CITY": "PENNS GROVE", "ZIPCODE": "08069", "LINES": 2 }, "geometry": { "type": "MultiPoint", "coordinates": [ [ -75.484711636030426, 39.694211536316111 ] ] } },
{ "type": "Feature", "properties": { "ID": "133196", "NAME": "CARLLS CORNER", "CITY": "UPPER DEERFIELD TWP", "ZIPCODE": "08302", "LINES": 1 }, "geometry": { "type": "MultiPoint", "coordinates": [ [ -75.199791485264541, 39.454357356995445 ] ] } },
{ "type": "Feature", "properties": { "ID": "144380", "NAME": "CHURCHTOWN", "CITY": "PENNSVILLE", "ZIPCODE": "08070", "LINES": 2 }, "geometry": { "type": "MultiPoint", "coordinates": [ [ -75.501526146110038, 39.674699504674628 ] ] } },
{ "type": "Feature", "properties": { "ID": "132614", "NAME": "CUMBERLAND", "CITY": "MILLVILLE", "ZIPCODE": "08332", "LINES": 4 }, "geometry": { "type": "MultiPoint", "coordinates": [ [ -74.966390128369653, 39.37610594315597 ] ] } },
{ "type": "Feature", "properties": { "ID": "132982", "NAME": "WEST", "CITY": "VINELAND", "ZIPCODE": "08360", "LINES": 0 }, "geometry": { "type": "MultiPoint", "coordinates": [ [ -75.048984779445391, 39.491118935792855 ] ] } },
{ "type": "Feature", "properties": { "ID": "132983", "NAME": "HOWARD DOWN 1", "CITY": "VINELAND", "ZIPCODE": "08360", "LINES": 0 }, "geometry": { "type": "MultiPoint", "coordinates": [ [ -75.033984656932233, 39.490309919068693 ] ] } },
{ "type": "Feature", "properties": { "ID": "133193", "NAME": "HOWARD DOWN 2", "CITY": "VINELAND", "ZIPCODE": "08360", "LINES": 1 }, "geometry": { "type": "MultiPoint", "coordinates": [ [ -75.033403193618497, 39.48881195972519 ] ] } },
{ "type": "Feature", "properties": { "ID": "133200", "NAME": "LINCOLN/CLAYVILLE", "CITY": "VINELAND", "ZIPCODE": "08361", "LINES": 1 }, "geometry": { "type": "MultiPoint", "coordinates": [ [ -75.018274756648495, 39.42594915771592 ] ] } },
{ "type": "Feature", "properties": { "ID": "144070", "NAME": "SHERMAN AVENUE", "CITY": "VINELAND", "ZIPCODE": "08360", "LINES": 2 }, "geometry": { "type": "MultiPoint", "coordinates": [ [ -75.058041673191624, 39.44978511375659 ] ] } },
{ "type": "Feature", "properties": { "ID": "139185", "NAME": "CAPE MAY", "CITY": "CAPE MAY", "ZIPCODE": "08204", "LINES": 0 }, "geometry": { "type": "MultiPoint", "coordinates": [ [ -74.92518912603559, 38.936569779948243 ] ] } },
{ "type": "Feature", "properties": { "ID": "132233", "NAME": "MERION", "CITY": "OCEAN CITY", "ZIPCODE": "08226", "LINES": 0 }, "geometry": { "type": "MultiPoint", "coordinates": [ [ -74.614210476624706, 39.251736999169566 ] ] } },
{ "type": "Feature", "properties": { "ID": "132622", "NAME": "DENNIS", "CITY": "OCEAN VIEW", "ZIPCODE": "08230", "LINES": 2 }, "geometry": { "type": "MultiPoint", "coordinates": [ [ -74.740967993205558, 39.195120519675896 ] ] } },
{ "type": "Feature", "properties": { "ID": "143934", "NAME": "CORSON", "CITY": "OCEAN VIEW", "ZIPCODE": "08230", "LINES": 3 }, "geometry": { "type": "MultiPoint", "coordinates": [ [ -74.739646425895543, 39.191616161815951 ] ] } },
{ "type": "Feature", "properties": { "ID": "132289", "NAME": "COURT", "CITY": "MIDDLE TWP", "ZIPCODE": "08210", "LINES": 0 }, "geometry": { "type": "MultiPoint", "coordinates": [ [ -74.829109493225701, 39.088813762163625 ] ] } },
{ "type": "Feature", "properties": { "ID": "132984", "NAME": "RIO GRANDE", "CITY": "MIDDLE TWP", "ZIPCODE": "08242", "LINES": 0 }, "geometry": { "type": "MultiPoint", "coordinates": [ [ -74.880163179866756, 39.017765634762497 ] ] } },
{ "type": "Feature", "properties": { "ID": "133195", "NAME": "MIDDLE", "CITY": "MIDDLE TWP", "ZIPCODE": "08242", "LINES": 1 }, "geometry": { "type": "MultiPoint", "coordinates": [ [ -74.877447464066705, 39.02689048190198 ] ] } },
{ "type": "Feature", "properties": { "ID": "144076", "NAME": "SCULL", "CITY": "EGG HARBOR TOWNSHIP", "ZIPCODE": "08234", "LINES": 4 }, "geometry": { "type": "MultiPoint", "coordinates": [ [ -74.648623794298913, 39.323246473877425 ] ] } },
{ "type": "Feature", "properties": { "ID": "132224", "NAME": "PVILLE", "CITY": "EGG HARBOR TOWNSHIP", "ZIPCODE": "08234", "LINES": 0 }, "geometry": { "type": "MultiPoint", "coordinates": [ [ -74.566619097412953, 39.441360989344822 ] ] } },
{ "type": "Feature", "properties": { "ID": "132227", "NAME": "MARVEN", "CITY": "MARGATE CITY", "ZIPCODE": "08402", "LINES": 0 }, "geometry": { "type": "MultiPoint", "coordinates": [ [ -74.499656009934924, 39.340022003822519 ] ] } },
{ "type": "Feature", "properties": { "ID": "132228", "NAME": "HURON", "CITY": "ATLANTIC CITY", "ZIPCODE": "08401", "LINES": 0 }, "geometry": { "type": "MultiPoint", "coordinates": [ [ -74.43561461925664, 39.37288276974369 ] ] } },
{ "type": "Feature", "properties": { "ID": "132229", "NAME": "RETIRED BRIGANTINE", "CITY": "BRIGANTINE", "ZIPCODE": "08203", "LINES": 0 }, "geometry": { "type": "MultiPoint", "coordinates": [ [ -74.374072715397929, 39.403562816845302 ] ] } },
{ "type": "Feature", "properties": { "ID": "133194", "NAME": "HIGBEE", "CITY": "ATLANTIC CITY", "ZIPCODE": "08401", "LINES": 1 }, "geometry": { "type": "MultiPoint", "coordinates": [ [ -74.442320162865244, 39.365819285707531 ] ] } },
{ "type": "Feature", "properties": { "ID": "144072", "NAME": "DOROTHY", "CITY": "MAYS LANDING", "ZIPCODE": "08330", "LINES": 2 }, "geometry": { "type": "MultiPoint", "coordinates": [ [ -74.768539190110317, 39.430036174817708 ] ] } },
{ "type": "Feature", "properties": { "ID": "144073", "NAME": "CARDIFF", "CITY": "EGG HARBOR TOWNSHIP", "ZIPCODE": "08234", "LINES": 3 }, "geometry": { "type": "MultiPoint", "coordinates": [ [ -74.62052432692164, 39.42833781226274 ] ] } },
{ "type": "Feature", "properties": { "ID": "144074", "NAME": "MILL", "CITY": "EGG HARBOR TOWNSHIP", "ZIPCODE": "08234", "LINES": 4 }, "geometry": { "type": "MultiPoint", "coordinates": [ [ -74.616592816843024, 39.397160108285341 ] ] } },
{ "type": "Feature", "properties": { "ID": "144075", "NAME": "LEWIS", "CITY": "EGG HARBOR TOWNSHIP", "ZIPCODE": "08234", "LINES": 5 }, "geometry": { "type": "MultiPoint", "coordinates": [ [ -74.5293167905985, 39.416934527990605 ] ] } },
{ "type": "Feature", "properties": { "ID": "132385", "NAME": "SHIP BOTTOM", "CITY": "BEACH HAVEN", "ZIPCODE": "08008", "LINES": 0 }, "geometry": { "type": "MultiPoint", "coordinates": [ [ -74.17858865465594, 39.651010936180583 ] ] } },
{ "type": "Feature", "properties": { "ID": "133191", "NAME": "CEDAR", "CITY": "STAFFORD TWP", "ZIPCODE": "08092", "LINES": 3 }, "geometry": { "type": "MultiPoint", "coordinates": [ [ -74.261314846038744, 39.690256158000921 ] ] } },
{ "type": "Feature", "properties": { "ID": "133192", "NAME": "BARNEGAT", "CITY": "BARNEGAT TWP", "ZIPCODE": "08005", "LINES": 0 }, "geometry": { "type": "MultiPoint", "coordinates": [ [ -74.274011492330658, 39.757988230092543 ] ] } },
{ "type": "Feature", "properties": { "ID": "133190", "NAME": "MANCHESTER", "CITY": "MANCHESTER TWP", "ZIPCODE": "08759", "LINES": 2 }, "geometry": { "type": "MultiPoint", "coordinates": [ [ -74.279928922380932, 40.036097070326427 ] ] } },
{ "type": "Feature", "properties": { "ID": "141104", "NAME": "MANITOUS", "CITY": "TOMS RIVER", "ZIPCODE": "08757", "LINES": 5 }, "geometry": { "type": "MultiPoint", "coordinates": [ [ -74.220013592617292, 39.952481841063822 ] ] } },
{ "type": "Feature", "properties": { "ID": "141105", "NAME": "LEISURE VILLAGE", "CITY": "TOMS RIVER", "ZIPCODE": "08755", "LINES": 4 }, "geometry": { "type": "MultiPoint", "coordinates": [ [ -74.185832224441, 40.02999694167984 ] ] } },
{ "type": "Feature", "properties": { "ID": "141106", "NAME": "LAKEWOOD", "CITY": "LAKEWOOD", "ZIPCODE": "08701", "LINES": 6 }, "geometry": { "type": "MultiPoint", "coordinates": [ [ -74.167222096194493, 40.061006148781907 ] ] } },
{ "type": "Feature", "properties": { "ID": "141125", "NAME": "OYSTER CREEK", "CITY": "KENILWORTH", "ZIPCODE": "07033", "LINES": 5 }, "geometry": { "type": "MultiPoint", "coordinates": [ [ -74.209179046111515, 39.813721552754757 ] ] } },
{ "type": "Feature", "properties": { "ID": "133188", "NAME": "LAKEWOOD 2", "CITY": "LAKEWOOD", "ZIPCODE": "08701", "LINES": 2 }, "geometry": { "type": "MultiPoint", "coordinates": [ [ -74.167409683290444, 40.062870805206167 ] ] } },
{ "type": "Feature", "properties": { "ID": "141144", "NAME": "LAKEWOOD 3", "CITY": "LAKEWOOD", "ZIPCODE": "08701", "LINES": 0 }, "geometry": { "type": "MultiPoint", "coordinates": [ [ -74.214707893715939, 40.088649170957368 ] ] } },
{ "type": "Feature", "properties": { "ID": "141149", "NAME": "LARRABEE", "CITY": "HOWELL TWP", "ZIPCODE": "07731", "LINES": 7 }, "geometry": { "type": "MultiPoint", "coordinates": [ [ -74.191872474851863, 40.113784997193683 ] ] } },
{ "type": "Feature", "properties": { "ID": "133189", "NAME": "WHITINGS", "CITY": "MANCHESTER TWP", "ZIPCODE": "08759", "LINES": 2 }, "geometry": { "type": "MultiPoint", "coordinates": [ [ -74.377868626581034, 39.952131482711906 ] ] } }
]
}
